,Country,City,Latitude,Longitude,Current Temperature,Current Humidity,Current Wind Speed,Current Cloudiness,OpenWeatherMap City Number
29208,ph,nama,16.1412,120.5426,20.4,97,1.46,80,1698431
45284,us,greensburg,40.3013889,-79.5391667,-2.83,79,3.1,75,5192029
19682,in,umaria,23.533333,80.833333,18.83,61,2.18,100,1253863
45075,us,north college hill,39.2183333,-84.5508333,-1.67,63,5.7,90,4519853
1794,be,verviers,50.583333,5.866667,3.25,100,3.6,44,2784822
938,au,sydney,-33.861481,151.205475,23.0,60,4.6,40,6619279
43443,us,greenwood,39.6136111,-86.1066667,-1.66,63,5.1,90,4258313
31273,pl,pila,53.154996999999995,16.746074,0.13,91,5.16,92,3089033
32372,ro,boldur,45.694167,21.776667,2.92,93,1.5,75,684275
6602,co,aracataca,10.591812,-74.18983100000001,30.0,66,3.1,75,3689759
40374,tj,nau,40.1538889,69.3730556,10.0,76,1.0,90,1514856
14292,gr,thesprotikon,39.25,20.784722199999997,8.0,93,1.5,0,252939
34845,rs,bor,44.078333,22.095278,1.5,92,2.96,44,792456
24791,mx,tres picos,15.866667000000001,-93.533333,30.4,65,1.78,0,3515120
9548,de,rostock,54.083332999999996,12.133333,2.0,100,2.1,75,2844588
5592,ci,grand-lahou,5.1355260000000005,-5.023964,24.75,94,2.11,0,2288105
34777,ro,vutcani,46.466667,27.966666999999998,-1.48,74,1.26,56,662376
18180,in,katras,23.8,86.283333,13.0,69,1.48,0,1267439
45409,us,toa alta,18.390277800000003,-66.2486111,27.0,74,3.1,1,4568403
7742,cu,pinar del rio,22.4175,-83.6980556,22.35,69,3.23,8,3544091
25042,my,pantai remis,4.4557,100.6288,25.0,94,0.5,75,1752256
31999,py,san juan nepomuceno,-26.1,-55.966667,21.58,63,1.33,0,3437059
24530,mx,soyalo,16.9,-92.916667,26.0,57,7.7,5,3516511
2747,br,coite do noia,-9.666667,-36.5,25.2,78,2.48,68,3386628
26394,pa,chiman,8.716944400000001,-78.6338889,25.33,86,3.01,64,3701195
11257,fi,lappeenranta,61.066667,28.183333,-4.0,68,3.1,90,648900
15893,hu,pannonhalma,47.549465000000005,17.755354,5.0,85,4.1,0,3046693
18948,in,pasan,22.85,82.2,17.28,66,1.78,76,1260210
24006,mx,la cruz,23.916667,-106.9,26.53,44,1.51,0,4002745
21639,jp,nemuro,43.323611,145.575,7.0,93,9.3,75,2128975
26203,nz,edendale,-46.316666999999995,168.783333,13.48,74,3.91,76,2178933
45447,us,warwick,41.7,-71.41666670000001,3.18,74,2.6,90,5225507
22792,mg,arivonimamo,-19.0166667,47.1833333,18.0,93,1.0,20,1068865
44138,us,brainerd,46.35805560000001,-94.2005556,-4.5,53,2.38,75,5019116
6912,co,guaitarilla,1.138554,-77.55300600000001,13.83,82,0.78,75,3681644
589,at,eberndorf,46.591389,14.643610999999998,-1.0,91,2.6,8,2780531
34170,ro,sascut,46.183333000000005,27.066667,2.0,100,0.5,0,667917
22616,lv,balvi,57.1333333,27.25,-2.63,93,5.71,92,461163
38065,ru,severo-kurilsk,50.678889,156.125,-1.23,98,6.83,92,2121385
14279,gr,stratos,38.6666667,21.3166667,8.0,93,1.5,0,253130
7921,cz,dolni dobrouc,49.992745,16.498762,4.0,64,5.7,0,3076882
15542,hu,fabianhaza,47.847590999999994,22.353460000000002,4.0,100,6.2,80,717397
4962,ca,saint-pacome,47.416667,-69.95,-1.8,92,6.43,92,7535692
40968,tz,mahanje,-9.933333300000001,35.3333333,17.9,97,0.68,12,155285
13565,gr,flambouron,40.9333333,23.5666667,13.0,58,3.1,20,733797
15820,hu,nagyhalasz,48.133333,21.766667,-1.38,88,2.26,44,715195
19699,in,uran,18.876944,72.939722,26.0,44,2.1,76,1253702
21233,jp,ashiya,34.733333,135.316667,8.25,61,5.7,75,7302983
16209,id,bima,-8.466667,118.71666699999999,26.95,91,1.03,8,1648759
37354,ru,novosibirsk,55.0415,82.9346,-17.0,84,4.0,0,1496747
11458,fr,bures-sur-yvette,48.699812,2.170636,5.57,93,1.0,0,3029522
14996,hn,la union,15.7166667,-87.0,26.0,74,4.1,20,3606159
15496,hu,devecser,47.103163,17.438023,5.0,88,7.2,0,3053712
8339,cz,tvrdonice,48.76088,16.992501999999998,-0.05,74,2.6,0,3063828
13845,gr,leonidion,37.16861110000001,22.855277800000003,7.7,42,2.26,0,258500
9999,dk,hanstholm,57.11666700000001,8.616667,0.0,100,7.76,88,2620786
267,am,horom,40.654166700000005,43.8822222,3.41,93,1.0,90,612561
44506,us,cliffside park,40.821388899999995,-73.9880556,2.54,55,4.13,90,5096686
885,au,medowie,-32.741501,151.867599,23.0,60,7.7,75,2158220
16232,id,ciawi,-6.525278,106.579722,26.0,94,2.6,40,6604595
22323,lk,negombo,7.208611099999999,79.8358333,25.0,83,1.5,40,1233369
37350,ru,novosergiyevka,52.0934,53.6528,-7.93,91,4.48,80,517982
19503,in,sriperumbudur,12.968889,79.94888900000001,24.0,100,1.23,0,1255630
4114,br,taruma,-22.75,-50.566666999999995,26.63,61,3.13,64,3446718
5416,ch,meggen,47.04722,8.369489,3.59,69,1.5,0,7286468
42316,us,folsom,38.67805560000001,-121.175,18.0,59,1.5,1,5349705
26786,pe,santa,-8.983333300000002,-78.6,20.78,83,2.81,8,3697990
4320,bw,kobojango,-21.8166667,28.7833333,19.53,99,2.78,68,933753
29311,ph,padada,6.641111,125.345,28.0,69,2.6,20,1696780
21789,jp,shizunai,42.333889,142.366944,9.25,85,11.38,92,2128025
15821,hu,nagyhegyes,47.516667,21.416667,3.0,100,4.6,56,715423
31571,pt,coimbra,40.205642,-8.419551,15.0,82,5.7,40,2740637
34442,ro,tarsolt,47.95,23.35,4.0,100,6.2,92,664938
60,af,tagab,34.855007,69.64917,4.0,86,1.0,48,1123424
21988,ke,kangundo,-1.3,37.35,19.0,82,2.1,75,194406
26809,pe,tambo grande,-4.9269444,-80.3447222,29.13,48,4.31,68,3691530
10655,es,algemesi,39.183333000000005,-0.43333299999999997,11.0,93,1.0,75,2522012
9293,de,mering,48.266667,10.983333,4.16,69,3.6,88,2871813
30024,ph,santa catalina norte,13.870833,121.3575,24.63,98,1.66,8,1688345
42418,us,menlo park,37.453888899999995,-122.18111110000001,18.41,68,5.1,40,5372223
16105,hu,toltestava,47.626090000000005,17.733760999999998,5.0,85,4.1,0,3043832
44698,us,baldwin,40.656388899999996,-73.60972220000001,2.77,55,4.13,90,5107760
39025,ru,vypolzovo,57.876667000000005,33.698611,-11.75,84,5.43,64,470390
2652,br,capao bonito,-24.016667,-48.333333,18.95,88,4.41,20,3467371
26601,pe,calca,-13.333333300000001,-71.95,14.0,67,1.0,40,3946177
13021,gb,walkerburn,55.63333299999999,-3.016667,2.0,93,5.7,40,2646172
6101,cn,jixi,45.3,130.966667,-15.4,61,2.56,0,2036389
39918,sv,cuscatancingo,13.7361111,-89.1813889,28.41,54,3.1,0,3586833
45330,us,washington,40.173888899999994,-80.24638890000001,-3.0,73,5.1,90,5218069
23021,mm,pyapon,16.283333300000002,95.6833333,22.4,96,1.36,0,1299237
13314,gq,aconibe,1.3,10.933333300000001,22.83,93,1.33,88,2310547
6004,cn,hefei,31.863889,117.280833,1.0,100,1.0,0,1808722
24734,mx,tlalnepantla,19.526944,-99.22166700000001,20.85,52,2.1,75,3515431
5495,ch,sissach,47.467368,7.799596000000001,4.98,75,1.5,0,7287180
31840,pt,valadares,41.147368,-7.981202000000001,13.51,100,9.3,75,2733262
34621,ro,valea calugareasca,44.966667,26.15,7.0,93,3.6,92,663863
32779,ro,costesti,45.15,24.066667000000002,2.2,93,0.91,68,680576
35012,rs,surcin,44.793056,20.280278,1.94,86,3.6,0,785288
29462,ph,patpata,17.183332999999998,120.433333,21.78,89,1.36,0,1694331
32308,ro,berliste,44.986667,21.463055999999998,5.0,100,1.0,75,684987
37898,ru,romny,50.724984,129.289379,-18.25,56,1.46,12,2017409
39145,ru,yurga,55.72305600000001,84.886111,-14.15,79,4.36,36,1485724
21975,ke,eldoret,0.5166667,35.283333299999995,10.25,96,0.78,8,198629
42650,us,durango,37.2752778,-107.87944440000001,14.4,16,7.2,1,5420241
16731,ie,youghal,51.95,-7.8505556,4.0,86,0.5,75,2960869
19941,ir,minab,27.1467,57.0801,17.45,93,1.88,48,123941
35699,ru,divnogorsk,55.9581,92.3726,-18.0,77,2.0,40,1507379
9172,de,langenzenn,49.5,10.8,1.76,98,4.6,90,2880862
28414,ph,kalaisan,7.010278,125.045,28.0,69,2.6,20,1709668
12989,gb,tarland,57.13333299999999,-2.8666669999999996,2.0,93,1.5,12,2655467
41199,ua,brovary,50.518094,30.806712,-0.33,100,1.0,90,711390
3529,br,ouro fino,-28.983333000000002,-52.816667,18.73,64,4.83,0,3467686
32680,ro,ciuchici,44.941389,21.61,5.0,100,1.0,75,681483
40272,th,ron phibun,8.179111,99.85425,22.0,100,1.21,40,1150921
3051,br,ipaussu,-23.05,-49.616667,25.85,62,4.86,44,3461143
45023,us,fairview park,41.4413889,-81.8644444,-2.45,86,6.7,90,5153680
36677,ru,kultuk,51.720833,103.69555600000001,-13.43,74,0.88,64,2021343
43088,us,kennesaw,34.0233333,-84.6155556,6.2,38,5.1,1,4203696
16771,il,kefar yona,32.316691999999996,34.935072999999996,15.0,93,3.1,40,294492
36772,ru,lebyazhye,55.268889,66.494722,-17.0,70,3.83,12,1500764
45867,us,colchester,44.5438889,-73.1483333,-2.41,92,3.6,90,5235024
17157,in,barwala,29.383333,75.916667,16.15,80,2.38,0,1276815
19267,in,samalkha,29.233333000000002,77.016667,14.58,85,1.23,0,1257566
27214,ph,balbalan,17.4408,121.2026,18.53,96,1.06,56,1728304
18005,in,jetalsar,21.7,70.583333,21.0,83,3.1,0,1269070
21438,jp,kamogawa,35.083333,140.1,15.77,100,8.2,75,2112562
10613,eg,matay,28.4222222,30.755555600000005,18.95,37,5.41,20,352628
28040,ph,davao,7.073055999999999,125.612778,28.0,69,2.6,20,1715348
4132,br,teutonia,-29.433333,-51.8,19.38,65,1.96,0,3446556
28036,ph,datagon,9.4461,123.0891,27.0,94,2.1,20,1715407
14036,gr,nikoklia,40.9333333,23.4333333,13.0,58,3.1,20,734915
1249,ba,zboriste,45.1458333,16.0177778,1.0,76,0.5,0,3186679
28182,ph,gandara,12.013,124.8118,25.98,95,2.91,0,1713262
15762,hu,maglod,47.442576,19.364383,1.22,72,1.5,8,3048630
30018,ph,santa ana,18.457659,122.14315400000001,23.5,100,11.06,92,1688393
5474,ch,ruschlikon,47.307744,8.555743,4.93,85,3.6,90,2658919
9807,de,waren,53.516667000000005,12.683333,2.0,100,2.1,75,2814131
44898,us,garner,35.711111100000004,-78.6144444,5.44,44,1.5,75,4467657
46200,uy,la paz,-34.7616667,-56.22361110000001,22.0,60,4.1,0,3442098
32247,ro,baraganul,44.8,27.516666999999998,1.03,85,1.33,76,685429
23697,mx,cuauhtemoc,22.183332999999998,-97.833333,19.0,88,7.7,90,3514682
22670,lv,tukums,56.9669444,23.1552778,1.0,100,3.6,90,454768
12661,gb,killin,56.466667,-4.316667,1.0,86,0.5,20,2652478
8792,de,erftstadt,50.816666999999995,6.766667,2.82,86,3.6,0,2929671
18737,in,naldurg,17.816667000000002,76.3,14.53,56,1.61,0,1262073
31234,pl,nowa sol,51.803937,15.715998,3.0,88,3.6,0,3090764
40192,th,mae sai,20.433528,99.87616700000001,21.0,83,3.6,75,1152194
30413,ph,tampilisan,7.9835,122.7054,26.2,82,1.91,0,1683411
16505,id,slawi,-6.9816,109.1407,22.5,97,1.16,44,1626758
42878,us,key west,24.555277800000002,-81.78277779999999,18.49,72,6.7,1,4160812
28302,ph,ibung,16.609376,121.18614,18.95,96,0.98,56,1966433
5691,cl,puerto varas,-41.319461,-72.985378,15.0,93,2.1,90,3874930
32019,py,veinticinco de diciembre,-24.7,-56.55,23.33,64,2.48,0,3436763
39008,ru,vsevolodo-vilva,59.218435,57.433797999999996,-12.15,79,3.83,68,583041
26880,pg,angoram,-4.0666667,144.06666669999998,22.33,100,1.01,92,2100765
38509,ru,tavrichanka,43.337778,131.863889,-11.0,47,7.0,0,2015455
39297,ru,zubtsov,56.175335,34.589349,-12.43,75,3.51,68,462008
45724,us,mineral wells,32.8083333,-98.1125,18.72,22,7.2,1,4711647
32752,ro,cornea,45.033333,22.316667000000002,1.45,100,0.98,80,680790
23936,mx,jacona,19.95,-102.266667,24.0,38,3.1,5,3979802
24616,mx,temoaya,19.470833,-99.591111,20.06,42,6.2,75,3516030
23634,mx,cojumatlan,20.116667,-102.833333,29.0,11,5.1,5,4013522
44418,us,dover,43.1977778,-70.8741667,-0.38,95,1.73,90,5085520
43811,us,parole,38.9794444,-76.5308333,3.08,44,4.6,90,4364964
30629,ph,vallehermoso,10.3349,123.3259,27.5,85,4.81,44,1680092
14220,gr,siatista,40.2619444,21.544166699999998,0.83,81,1.56,12,734315
39083,ru,yavas,54.3902,42.6626,-13.13,73,3.76,0,468587
39438,se,landskrona,55.86666700000001,12.833333,1.49,100,5.1,75,2697720
44370,us,grand island,40.925,-98.3416667,5.83,35,2.6,1,5069297
44423,us,exeter,42.9813889,-70.9483333,0.0,95,1.73,90,5085966
46755,zm,kansanshi,-12.1,26.433333299999997,18.35,88,1.28,68,913613
32935,ro,dor marunt,44.45,26.916666999999997,7.0,93,3.6,68,679095
45331,us,waynesboro,39.7558333,-77.5780556,1.4,50,5.7,40,4562070
16013,hu,szekszard,46.350137,18.709051000000002,-2.55,73,2.86,0,3044760
30535,ph,torres,16.0012,120.4557,20.4,97,1.46,80,1700338
23035,mm,thongwa,16.7619444,96.5277778,24.0,94,2.1,20,1291193
40368,tj,kulob,37.9091667,69.7819444,6.78,92,1.23,76,1221194
29527,ph,pitogo,5.888234,121.312154,29.08,87,5.88,0,1693280
6237,cn,ningbo,29.878186,121.549453,4.0,64,4.0,20,1799397
29718,ph,salvacion,8.6775,125.69916699999999,22.13,89,1.56,68,1690737
17399,in,chas,23.633333,86.166667,14.85,69,1.56,0,1274553
8670,de,butzow,53.85,11.983333,2.0,100,2.1,75,2940476
31934,py,general jose eduvigis diaz,-27.166666999999997,-58.416667000000004,25.47,47,2.6,0,3438064
23809,mx,frontera hidalgo,14.783332999999999,-92.166667,28.49,66,3.1,5,3527541
1226,ba,trn,44.8597222,17.236388899999998,1.0,86,4.1,0,3188817
16535,id,tangerang,-6.178056,106.63,26.0,94,3.1,20,1625084
4865,ca,petrolia,42.883333,-82.15,-1.0,86,3.1,90,6103581
10145,dk,spentrup,56.537031000000006,10.037917,1.0,100,2.1,92,2612823
1146,ba,maglaj,44.5491667,18.0966667,-2.0,92,1.0,40,3195946
29498,ph,pilar,9.829,124.3273,28.0,74,3.1,20,1693849
21687,jp,okegawa,36.0,139.557222,13.75,100,3.6,90,1854371
42566,us,sonoma,38.2919444,-122.45694440000001,19.11,63,3.1,1,5397095
9612,de,schwabach,49.329167,11.025556,2.38,93,6.2,75,2835537
42192,us,altadena,34.1897222,-118.13027779999999,21.1,24,4.6,1,5323525
26319,nz,waiuku,-37.25,174.75,23.0,73,2.6,68,2179756
16804,il,sakhnin,32.862221999999996,35.293333000000004,10.48,93,2.18,8,293655
19602,in,tigri,28.816667,78.15,14.0,81,1.06,0,1271543
32993,ro,dumitra,47.216667,24.483333,-1.05,92,0.91,92,678660
24584,mx,tecamachalco,18.883333,-97.733333,20.48,53,2.51,80,3516188
3794,br,ribeirao pires,-23.716667,-46.416667,20.7,88,5.7,90,3451329
20722,it,oristano,39.903056,8.591944,11.0,93,1.0,40,2523964
32253,ro,barca,43.966667,23.616667,3.0,93,5.1,0,684830
15530,hu,emod,47.933333000000005,20.816667000000002,-3.0,82,1.56,20,721161
28796,ph,mabini,13.753237,120.940487,24.63,98,1.66,8,1704560
29212,ph,namuac,18.610905,121.165699,20.78,100,7.86,92,1698354
21314,jp,hanyu,36.166667,139.533333,13.0,100,3.6,90,1863173
29361,ph,pambujan,12.5642,124.9276,26.13,100,5.16,88,1695887
26546,pa,santa fe,8.6519444,-78.1491667,29.58,67,3.51,36,3701195
40712,tr,susehri,40.164444,38.086667,3.2,100,0.81,92,739209
28097,ph,don marcelino,6.264444,125.667778,26.28,74,1.38,0,1714416
37285,ru,novoaltaysk,53.3917,83.9363,-15.0,71,3.0,0,1497173
2456,br,barroquinha,-2.983333,-41.083333,25.28,91,2.81,0,3406041
30330,ph,tagbina,8.451944000000001,126.17138899999999,23.65,98,1.61,36,1684491
9249,de,lugde,51.95,9.25,4.2,86,7.7,20,2875282
8404,cz,vsetin,49.341899,17.983582000000002,0.41,69,6.2,0,3062339
43006,us,sweetwater,25.7630556,-80.3733333,19.42,37,2.6,40,4174600
7479,co,totoro,2.512044,-76.40124,11.33,99,0.78,20,3666834
7629,cr,san jose,10.951731,-85.136096,28.0,61,10.3,20,3621841
14627,gt,san manuel chaparron,14.516667000000002,-89.766667,30.0,30,1.5,0,3589812
34081,ro,saceni,44.233333,25.066667000000002,1.03,91,3.93,92,668310
32482,ro,budesti,47.733333,23.95,0.28,92,0.91,92,683434
2898,br,floriano,-6.783333,-43.016667,23.45,95,1.43,0,3399506
41517,ua,nadvirna,48.634799,24.569364,-0.68,92,1.21,92,700507
6036,cn,huangzhai,33.5,114.78333300000001,0.15,70,3.58,0,1784130
29183,ph,nabulao,9.6616,122.4577,27.33,91,4.08,0,1698905
20067,it,amantea,39.133333,16.066667000000002,8.0,87,2.1,20,2525727
35120,ru,alekseyevka,52.583999999999996,51.28,-10.35,87,4.63,68,497411
18496,in,maindargi,17.466667,76.3,16.88,52,1.58,0,1264297
43554,us,leawood,38.966666700000005,-94.6166667,6.83,31,1.5,1,4274317
32067,ro,adamus,46.3,24.233333,5.19,100,1.0,64,686684
46087,us,bellevue,44.444166700000004,-87.92,-1.34,58,2.1,90,5245359
8410,cz,zakupy,50.684909999999995,14.646469,5.0,56,5.1,0,3061949
23549,mx,chanal,16.716667,-92.4,26.0,57,7.7,5,3531168
40912,tz,kayanga,-1.2166667,31.65,20.13,100,1.28,44,151240
2220,bo,san ignacio,-16.3666667,-60.95,27.0,83,2.73,40,3905658
42660,us,golden,39.7555556,-105.22055559999998,15.43,13,7.2,40,5423294
7595,cr,limon,9.992861,-83.03053299999999,23.0,94,1.5,90,3622247
33531,ro,mastacani,45.783333,28.033333000000002,1.2,83,1.23,64,673702
30962,pk,shahdadkot,27.847709000000002,67.905497,18.88,67,2.78,0,1165638
31298,pl,pyskowice,50.4,18.633333,0.0,88,2.1,12,3087628
4749,ca,logan lake,50.48,-120.81,4.0,93,1.0,90,6058415
14201,gr,rodos,36.4408333,28.2225,12.63,67,4.6,20,400666
41060,tz,ngara,-2.5122222,30.655833299999998,14.25,92,1.21,24,151711
19431,in,sindgi,16.916667,76.233333,19.13,45,4.06,0,1256214
30883,pk,minchinabad,30.163001,73.56854200000001,16.33,86,4.83,8,1170398
5759,cm,garoua,9.3,13.4,31.0,48,1.68,0,2231320
5446,ch,obersiggenthal,47.489554,8.290436999999999,5.11,85,4.1,90,2659345
37283,ru,novoaleksandrovsk,45.494802,41.220753,6.0,94,1.43,92,519106
45734,us,orange,30.0927778,-93.73638890000001,15.16,47,2.6,1,4716805
3191,br,japura,-1.395833,-69.42222199999999,25.1,96,1.38,8,0
25839,no,follebu,61.233332999999995,10.283333,-6.53,91,1.01,80,7626335
34263,ro,singureni,44.233610999999996,25.943333,7.0,100,3.6,40,667020
3167,br,jacareacanga,-6.266667,-57.65,25.88,92,0.91,20,3402916
7978,cz,hranice,49.556306,17.735235999999997,4.0,69,6.2,0,3074893
25563,nl,heiloo,52.60252,4.68815,5.01,75,7.2,20,2754516
11389,fr,avrille,47.5,-0.583333,10.0,81,2.1,92,3035612
15218,hn,tornabe,15.75,-87.55,27.0,74,4.6,20,3600662
23519,mx,capilla de guadalupe,20.833333,-102.583333,25.08,16,4.63,0,4015546
30517,ph,toboso,10.714348,123.516202,28.0,74,3.1,20,1681656
5080,ca,victoria,48.433333000000005,-123.35,9.3,87,5.7,90,6174041
33482,ro,maieru,47.4,24.75,-1.05,92,0.91,92,674061
36512,ru,kovernino,57.128177,43.813501,-20.5,54,1.88,0,543494
24824,mx,valle de allende,26.933333,-105.4,25.45,16,2.78,68,3980627
7088,co,morroa,9.333478999999999,-75.305423,28.48,76,4.48,12,3674337
17514,in,daund,18.466667,74.6,18.53,62,1.58,20,1273374
28636,ph,liberty,10.874167,125.0025,25.63,94,1.71,8,1706658
9712,de,telgte,51.983333,7.783333,4.0,80,6.7,0,2823590
841,au,geelong,-38.153461,144.358093,24.09,68,3.1,0,2165798
37166,ru,nebug,44.1717,39.0026,7.83,99,1.61,92,523048
17720,in,gezing,27.283333000000002,88.266667,12.2,74,1.01,0,1262029
13903,gr,megala kalivia,39.5,21.7875,-0.93,71,1.16,8,257448
3076,br,itaberai,-16.033333,-49.8,22.08,93,1.28,44,3460963
25436,ni,tipitapa,12.2005556,-86.09388890000001,31.0,43,4.1,20,3616035
42698,us,danbury,41.394722200000004,-73.4544444,1.78,51,2.6,90,4832353
29696,ph,sagbayan,9.9144,124.0919,28.0,74,3.1,20,1691137
21274,jp,fukuma,33.766667,130.466667,6.63,65,7.7,75,1863978
33341,ro,izvoru barzii,44.706666999999996,22.674167,-2.48,93,0.91,0,675331
27552,ph,bugko,12.5356,124.7923,26.13,100,5.16,88,1723276
38560,ru,tobolsk,58.2,68.266667,-14.78,75,2.86,36,1489530
42955,us,palmetto,27.521111100000002,-82.5725,13.0,54,4.6,1,4167632
14296,gr,thirion,38.8666667,20.9833333,8.0,93,1.5,0,256808
265,am,hnaberd,40.6427778,44.1444444,6.72,93,1.0,90,616535
7422,co,suesca,5.1028910000000005,-73.79845300000001,14.0,67,4.1,40,3667717
20578,it,margherita di savoia,41.366667,16.15,8.46,87,1.5,0,3173958
23014,mm,myanaung,18.283333300000002,95.3166667,18.95,89,1.48,0,1308204
39156,ru,yushala,57.076113,64.260115,-17.0,70,5.0,0,1485664
19014,in,phulpur,25.55,82.1,19.63,68,2.96,64,1259735
42127,us,prescott,34.54,-112.4677778,19.0,10,5.1,1,5309842
20735,it,paderno dugnano,45.55,9.166667,5.97,81,1.0,40,3177664
12199,ga,lastoursville,-0.8166667,12.7,21.9,99,0.98,92,2399870
11121,et,addis abeba,9.024325,38.749226,4.73,67,0.93,0,344979
9392,de,nordstemmen,52.166667,9.783333,5.0,75,7.7,75,2861866
34230,ro,sfantu gheorghe,44.883333,29.6,1.73,87,1.43,20,680203
43775,us,germantown,39.173055600000005,-77.2719444,1.86,74,5.7,1,4356050
11409,fr,bellegarde-sur-valserine,46.110377,5.830437,5.03,91,3.1,0,3033685
34269,ro,siret,47.95,26.066667000000002,3.0,86,2.1,0,666830
28365,ph,jaguimitan,11.14,122.7236,27.7,78,4.16,0,1710363
10635,es,aguilar de la frontera,37.514454,-4.656173,15.0,87,3.6,68,2522335
26121,no,ulefoss,59.283333,9.266667,-3.0,100,3.1,92,3133402
41640,ua,prykolotne,50.160423,37.347440999999996,-3.98,95,3.23,88,696302
29026,ph,manuangan,7.276944,124.404444,27.2,84,2.16,0,1701413
29814,ph,san francisco,10.16018,124.310984,28.0,74,3.1,20,1690014
13378,gr,anatolikon,40.55,21.75,-2.55,99,0.93,0,8133857
39110,ru,yelniki,54.623476000000004,43.873090999999995,-15.03,76,3.96,0,525369
3592,br,passo de camaragibe,-9.25,-35.433333000000005,25.0,88,4.1,0,3390522
44344,us,wildwood,38.5827778,-90.66277779999999,2.99,47,2.6,1,4414749
6292,cn,sanmenxia,34.774722,111.181389,-2.93,85,1.06,0,1796669
2318,br,amaraji,-8.4,-35.45,28.0,74,3.6,40,3407757
9210,de,liebenburg,52.016667,10.45,3.65,93,8.21,48,6552354
23240,mw,balaka,-14.983333300000002,34.95,18.63,100,1.26,0,931865
19304,in,saraikela,22.716667,85.95,15.33,69,1.01,0,1257263
29607,ph,putingkahoy,13.819167000000002,121.307222,24.63,98,1.66,8,1693652
46132,us,oak creek,42.8858333,-87.8630556,-2.01,54,6.2,75,5265228
6215,cn,nanchang,28.55,115.933333,5.45,90,2.61,0,1803862
46308,ve,caracas,10.5,-66.91666670000001,27.0,65,11.46,20,3640847
41723,ua,skvyra,49.731771,29.665694000000002,0.78,94,1.61,80,693615
38883,ru,verkhnyaya inta,66.083333,60.516667000000005,-14.88,75,1.11,8,1487332
35274,ru,balezino,57.979634,53.010569999999994,-16.18,65,3.98,44,579432
1572,be,ingelmunster,50.916667,3.25,3.49,80,4.1,0,2795056
6648,co,boavita,6.33031,-72.58505,11.4,83,0.53,0,3688775
13229,gl,paamiut,62.0,-49.75,-5.43,100,11.71,0,3421193
36380,ru,kizner,56.274888,51.507996,-22.33,48,2.03,0,547831
33609,ro,mogosesti,47.033333,27.533333000000002,3.0,93,2.1,80,672943
20279,it,castenaso,44.5,11.466667,7.0,70,3.6,0,3179441
28139,ph,ermita,10.9,122.71666699999999,27.03,69,3.91,8,1713829
5360,ch,grenchen,47.193540000000006,7.396577000000001,4.66,73,2.1,0,2660512
28408,ph,kabulusan,14.3615,121.4004,24.0,100,2.1,90,1709865
25722,nl,waalre,51.390482,5.43095,3.29,86,4.6,75,2745126
23161,mu,ecroignard,-20.2261111,57.7361111,24.0,83,1.0,20,1106660
5411,ch,malters,47.03628,8.181928,3.91,69,1.5,0,2659776
7369,co,santo tomas,10.75773,-74.754509,27.0,83,6.2,75,3668332
27607,ph,burgos,16.07181,121.049536,19.0,96,1.23,80,1722426
1445,be,chimay,50.05,4.316667,3.0,93,4.1,80,2800326
27223,ph,balila,8.002778,125.013056,21.53,71,1.43,0,1728145
31184,pl,lezajsk,50.260132,22.421242000000003,1.0,100,2.6,0,766332
30368,ph,talisay,13.914842000000002,120.62326200000001,25.73,100,5.66,0,1683862
33700,ro,nuseni,47.1,24.2,6.0,93,0.5,75,672125
23904,mx,irapuato,20.683332999999998,-101.35,27.0,18,5.1,40,4004330
1053,ba,bila,43.7825,16.925277800000003,7.0,87,1.0,0,3204168
46663,za,port elizabeth,-33.917988,25.570066,18.0,77,6.2,20,964420
19918,ir,khonsar,33.220521000000005,50.314969,-3.3,51,1.88,0,127033
42903,us,lutz,28.1508333,-82.4616667,12.78,54,3.1,1,4163033
44044,us,ecorse,42.2444444,-83.14583329999999,-0.91,77,5.1,90,4991791
28350,ph,iraya,13.25,123.516667,25.85,85,2.58,24,1710549
1288,bd,gafargaon,24.4333333,90.5666667,20.0,77,1.01,40,1185218
15848,hu,nyirbator,47.833333,22.133333,4.0,100,6.2,80,714258
13569,gr,fournoi,37.779444399999996,26.7516667,8.0,81,2.1,0,261816
37392,ru,novyy khushet,42.899415000000005,47.560403,5.0,93,2.0,40,802921
1428,be,brugelette,50.6,3.85,3.61,93,2.6,48,2790793
45588,us,arlington,32.735555600000005,-97.1077778,18.07,25,4.1,1,4671240
30223,ph,sinonoc,8.3096,123.8461,25.23,90,2.48,80,1686159
24303,mx,piedra gorda,22.516667,-102.333333,25.0,11,7.7,5,3987342
44024,us,battle creek,42.3211111,-85.1797222,-1.75,68,5.1,90,4985153
15527,hu,egyek,47.633333,20.9,-2.43,76,2.91,0,721208
7877,cz,ceska lipa,50.686735999999996,14.538125,5.0,56,5.1,0,3077929
25610,nl,maastricht,50.85,5.683333,3.51,86,5.1,8,2751283
43755,us,crofton,39.0016667,-76.68777779999999,2.71,69,4.1,1,4352539
31807,pt,seroa,41.265112,-8.428923,13.53,100,9.3,75,2734069
42690,us,branford,41.279444399999996,-72.8155556,2.64,64,2.1,90,5283054
10564,ee,valkla,59.4744444,25.318611100000002,-2.0,100,3.6,90,587839
26088,no,stranda,62.316667,6.9,1.5,100,2.1,80,3135813
12494,gb,eaglesfield,55.05,-3.2,1.0,100,6.2,36,2650280
15768,hu,mandok,48.321494,22.191066,0.33,87,1.26,80,717853
90,al,fierze,42.2605556,20.0169444,8.0,93,2.1,40,829448
4286,bt,jakar,27.55,90.7333333,-2.18,95,0.76,0,1252396
5859,cn,caidian,30.583333000000003,114.03333300000001,5.0,80,3.0,0,1816176
37431,ru,oktyabrskaya,46.278,39.8151,2.2,100,1.66,80,515936
2568,br,cachoeiras de macacu,-22.466667,-42.65,24.0,94,3.6,90,3468425
9251,de,lunen,51.616667,7.516667,3.49,80,6.7,0,2875107
5301,ch,bubikon,47.267748,8.818391,5.54,87,3.6,90,2661359
11017,es,san pedro del pinatar,37.83399,-0.791974,12.0,100,4.08,0,2511247
13752,gr,khrisokhorafa,41.1833333,23.2333333,0.88,88,0.98,0,735751
7864,cz,bystrice pod hostynem,49.399643,17.674172,4.0,69,6.2,0,3078286
36931,ru,maloye kozino,56.43829,43.674585,-23.0,83,3.36,0,533484
25263,ng,gbongan,7.466667,4.35,26.0,88,1.5,0,2341355
37733,ru,porkhov,57.765016,29.556121,-1.0,92,3.0,92,506278
2027,bg,plackovci,42.8166667,25.466666699999998,7.0,100,3.6,12,725407
37527,ru,oyskhara,43.264016,46.248027,3.1,89,1.11,80,518851
43588,us,henderson,37.836111100000004,-87.59,1.4,51,2.1,20,4294494
435,an,sint michiel,12.133333300000002,-68.9833333,26.0,83,7.7,20,3513221
25406,ni,nagarote,12.2675,-86.56527779999999,31.0,43,4.1,20,3617522
37141,ru,nagorsk,59.317221999999994,50.807778000000006,-14.38,80,4.66,24,523583
15242,hn,wawina,15.416666699999999,-84.4333333,25.23,63,2.28,0,3600280
18429,in,loharu,28.45,75.81666700000001,16.15,67,4.21,0,1264829
21248,jp,chofu,35.655556,139.552222,14.17,100,3.6,90,1864518
7134,co,pacora,5.527083999999999,-75.459301,20.0,77,1.5,75,3673413
38164,ru,shumskiy,54.8318,99.1328,-9.68,87,0.88,68,1491977
1537,be,hasselt,50.933333000000005,5.3333330000000005,3.38,86,3.1,8,2796492
17794,in,guna,24.65,77.31666700000001,15.4,93,1.16,0,1270711
14563,gt,retalhuleu,14.533332999999999,-91.68333299999999,28.0,78,4.1,90,3590856
8991,de,helmstedt,52.233333,11.0,3.23,93,8.01,44,6557378
46760,zm,kasempa,-13.45,25.8333333,17.38,85,1.21,24,912628
34459,ro,tazlau,46.716667,26.466666999999998,2.0,100,0.5,0,665377
32150,ro,arpasu de jos,45.783333,24.616667,5.0,93,1.0,90,686126
31191,pl,lomza,53.173552,22.065379999999998,1.65,95,3.83,88,766027
22620,lv,cesvaine,56.966666700000005,26.316666700000003,-1.98,94,3.93,92,460568
44836,us,roosevelt,40.678611100000005,-73.5894444,2.73,55,4.13,90,5134323
13331,gr,afration,38.45,23.6833333,11.11,70,1.5,20,265650
13848,gr,liapades,39.669444399999996,19.736388899999998,8.0,87,3.41,20,2463676
45618,us,cedar park,30.505,-97.82,18.45,23,3.1,1,4679867
39956,sv,puerto el triunfo,13.2833333,-88.55,29.0,51,2.1,0,3584003
409,am,voskehask,40.7383333,43.775833299999995,3.41,93,1.0,90,616076
16173,id,ambon,-3.6954260000000003,128.181405,25.33,100,3.93,92,1651531
9436,de,ottersberg,53.1,9.15,3.88,80,10.3,75,2856014
44640,us,wanaque,41.03805560000001,-74.2944444,2.33,55,2.93,90,5106014
40146,th,hat yai,7.008359,100.476682,24.33,94,4.18,20,1610780
11300,fi,tuusula,60.416667000000004,25.033333,-2.0,92,6.2,75,633592
23468,mx,boca del rio,19.1,-96.1,23.0,73,8.2,40,3532193
25455,nl,arnhem,51.979818,5.925636,3.0,86,4.6,92,7874246
43502,us,clive,41.603055600000005,-93.7238889,-0.89,83,3.1,20,4852065
3235,br,junqueiropolis,-21.533333,-51.433333000000005,28.35,61,2.51,36,3459452
482,ar,cordoba,-31.413496000000002,-64.18105200000001,20.0,60,4.1,0,3860259
36831,ru,listvyanka,51.8535,104.8693,-13.0,92,2.0,75,2020744
35159,ru,andreyevka,55.980278000000006,37.135,-10.88,78,4.0,0,582001
2957,br,guapimirim,-22.533333,-42.983333,24.0,100,2.1,90,3461949
30628,ph,valencia,11.108889,124.5725,25.2,100,2.91,92,1680106
45290,us,horsham,40.1783333,-75.1288889,1.23,71,2.1,1,5194302
38868,ru,verkhniy baskunchak,48.225639,46.721695000000004,0.7,96,1.73,80,475196
5275,ch,ascona,46.156255,8.778395,4.01,74,0.88,75,2661698
3183,br,jales,-20.266667,-50.55,25.08,84,1.33,8,3460186
31467,pt,alferrarede,39.483333,-8.166667,12.45,99,4.73,92,2270765
14829,hn,cusuna,15.85,-85.2333333,23.1,67,1.38,0,3612949
27980,ph,daan banua,10.903537,123.05970400000001,27.03,69,3.91,8,1716385
43407,us,woodridge,41.7469444,-88.05027779999999,-1.09,68,5.7,1,4917089
11661,fr,harnes,50.446427,2.9048119999999997,3.31,80,4.1,0,3013908
22207,kz,sergeyevka,53.88,67.41583299999999,-11.88,85,3.13,88,1519385
10074,dk,munkebo,55.461837,10.555769,2.38,91,5.41,88,2616672
13790,gr,konitsa,40.0486111,20.7566667,-3.68,84,1.11,44,735636
34405,ro,suseni,46.666667,25.55,-1.23,93,0.93,88,665691
15516,hu,dunaszentgyorgy,46.528521999999995,18.81771,-1.25,72,3.76,0,3053450
29689,ph,sagacad,7.686111,123.340556,26.28,74,2.48,0,1958415
29753,ph,san andres,15.7222,120.77799999999999,25.0,83,3.1,75,1690428
26576,pe,acari,-15.4311111,-74.61583329999999,19.85,69,0.88,0,3948613
13094,ge,gori,41.97361110000001,44.1111111,5.83,100,1.06,92,614951
25275,ng,ihiala,5.853769000000001,6.860264999999999,24.75,93,2.03,44,2338497
20997,it,silea,45.656110999999996,12.300278,4.66,93,2.1,68,3166532
20341,it,collecchio,44.75,10.216667,5.45,98,2.48,12,3178416
32771,ro,cosmesti,44.3,25.383333,7.0,100,3.6,40,680624
35896,ru,golovchino,50.5341,35.797,-5.0,92,3.0,90,560674
25199,ne,illela,14.461666699999999,5.2475,23.53,44,2.13,0,2443304
7503,co,usiacuri,10.75,-74.983333,27.56,83,6.2,75,3666370
44725,us,east massapequa,40.673333299999996,-73.4369444,2.8,55,5.28,90,5115962
26955,ph,aguisan,10.1603,122.8615,25.98,75,1.51,0,1697966
5218,cf,bozoum,6.3166667,16.3833333,24.25,61,1.51,80,2387546
46423,vn,lang son,21.833333,106.733333,9.03,74,4.81,0,1576633
42035,us,fort payne,34.444166700000004,-85.7197222,6.03,38,2.6,1,4062861
19290,in,sangrur,30.233333000000002,75.833333,16.15,82,3.63,0,1257402
10380,ec,san gabriel,0.6,-77.8166667,11.0,93,0.36,75,3651868
30848,pk,kotli loharan,32.588303,74.493208,16.0,67,3.1,40,1173025
4437,ca,aylmer,42.783333,-80.983333,-2.0,86,6.7,90,5888716
11841,fr,montelimar,44.558378999999995,4.750937,4.0,80,1.68,20,2992703
7475,co,topaipi,5.334567,-74.30291700000001,23.35,73,0.36,20,3666903
380,am,tazagyukh,40.1416667,45.1913889,9.0,87,1.5,75,616174
21851,jp,tenri,34.583333,135.833333,8.24,66,6.2,75,1850396
43844,us,arlington,42.4152778,-71.1569444,1.58,80,2.6,90,4929180
24995,my,juru,5.312009,100.442289,25.0,88,2.1,75,1772148
40472,tn,tawzar,33.919683,8.133519999999999,17.0,63,5.1,40,2464648
17159,in,basar,27.983333000000002,94.666667,10.88,84,0.88,44,1276788
37824,ru,pudozh,61.809881999999995,36.534541,-18.18,67,3.61,0,504269
21163,jm,maroon town,18.35,-77.8,25.0,78,3.1,40,3489555
1967,bg,kaolinovo,43.6166667,27.116666700000003,3.78,96,3.68,92,730650
9759,de,vaterstetten,48.116667,11.783333,5.2,52,4.6,0,2953112
30564,ph,tuding,16.410277999999998,120.644167,20.4,97,1.46,80,1681022
35556,ru,chagda,58.7475,130.619722,-20.58,67,1.58,64,0
24602,mx,tejupilco,18.9,-100.15,21.5,43,1.28,8,3982121
25293,ng,iseyin,7.966667,3.6,24.63,81,3.46,12,2337181
17458,in,chomun,27.166666999999997,75.716667,20.0,34,2.1,20,1274671
31873,pt,vizela,41.365906,-8.283761,13.53,100,9.3,75,2732242
6495,cn,youhao,47.866667,128.833333,-17.53,62,1.06,0,2033301
25067,my,semporna,4.4817800000000005,118.611185,28.0,78,2.6,75,1733697
38969,ru,volsk,51.986272,47.243375,-8.23,88,6.53,76,472278
4552,ca,cornwall,46.24,-63.21,0.0,88,9.8,90,5946222
19322,in,satana,20.583333,74.2,19.73,56,1.91,0,1257060
39830,sn,mbour,14.4,-16.966666699999998,20.0,82,2.1,8,2248477
11865,fr,muret,43.465874,1.327316,9.0,87,4.1,0,6431841
4653,ca,halifax,44.65,-63.6,2.0,100,7.2,90,5969423
1871,bf,kaya,13.0916667,-1.0844444,24.25,51,1.16,24,2359608
11946,fr,puteaux,48.878888,2.239264,5.57,93,2.1,0,2985034
13089,ge,dioknisi,41.631111100000005,42.4152778,10.51,100,2.6,90,614897
32356,ro,bogati,44.866667,25.133333,2.6,95,1.23,92,684423
20060,it,alfonsine,44.506111,12.056389,5.63,93,1.5,0,3183287
13068,gb,yetholm,55.55,-2.266667,2.01,93,4.6,12,2645242
30795,pk,jand,33.429853,72.019285,12.78,99,1.01,80,1176218
26274,nz,porirua,-41.133333,174.85,17.0,77,10.8,68,2184397
20840,it,recanati,43.4,13.533332999999999,7.83,83,1.73,24,3179542
25642,nl,opmeer,52.705864,4.937754,4.77,93,3.6,75,2749286
26450,pa,la herradura,8.8522222,-79.80722220000001,28.53,74,5.7,20,3707568
33583,ro,mileanca,48.083333,26.7,3.0,86,2.1,0,673315
12356,gb,broxburn,55.933333,-3.4666669999999997,1.65,93,5.7,40,2654480
30285,ph,tabialan,6.028059,121.893546,27.73,100,1.03,64,1685006
37987,ru,sarapulka,56.8678,61.0552,-16.0,71,1.0,0,1493044
3033,br,imbituba,-28.233333000000002,-48.666667,22.0,73,1.5,75,3461370
3668,br,pirapemas,-3.7166669999999997,-44.233333,26.13,86,2.48,44,3391940
24949,mx,zitlala,17.633333,-99.083333,25.65,35,1.11,0,3514021
16686,ie,mountmellick,53.1136111,-7.32,2.0,78,2.1,20,2962476
2087,bg,varna,43.216666700000005,27.9166667,4.0,86,1.5,0,726048
19610,in,tinnanur,13.111389,80.026111,24.0,100,1.23,0,1254436
17842,in,haridwar,29.966666999999998,78.166667,10.0,79,1.21,24,1270351
6983,co,la llanada,1.489973,-77.583474,12.99,82,0.78,75,3678575
39067,ru,yarkovo,54.8056,82.5989,-17.0,84,4.0,0,1486371
